City_ID,City,Country,Date,Lat,Lng,Max Temp,Humidity,Cloudiness,Wind Speed
0,Busselton,AU,2021-12-05 23:02:11,-33.65,115.3333,61.05,67,58,17.4
1,Kavaratti,IN,2021-12-05 23:04:01,10.5669,72.642,80.69,72,60,12.48
2,Jieshi,CN,2021-12-05 23:04:45,22.8134,115.8257,57.94,61,23,8.63
3,Malanje,AO,2021-12-05 23:04:45,-9.5402,16.341,64.2,96,100,3.11
4,Mataura,NZ,2021-12-05 23:04:45,-46.1927,168.8643,54.48,47,92,5.06
5,Baykit,RU,2021-12-05 23:04:45,61.67,96.37,-8.07,96,100,3.04
6,Plastun,RU,2021-12-05 23:04:46,44.7561,136.2939,24.93,79,4,5.64
7,Padang,ID,2021-12-05 23:00:00,-0.9492,100.3543,73.45,86,99,3.91
8,Kodiak,US,2021-12-05 23:04:13,57.79,-152.4072,31.51,80,90,0.0
9,Talcahuano,CL,2021-12-05 23:00:15,-36.7167,-73.1167,58.75,79,7,5.66
10,Leningradskiy,RU,2021-12-05 23:03:32,69.3833,178.4167,-3.69,98,100,15.05
11,Sitka,US,2021-12-05 23:04:47,57.0531,-135.33,35.49,75,90,8.05
12,Siocon,PH,2021-12-05 23:04:47,7.7061,122.1353,78.42,82,97,6.76
13,Ushuaia,AR,2021-12-05 23:02:41,-54.8,-68.3,47.62,50,36,7.05
14,Jijiga,ET,2021-12-05 23:04:47,9.35,42.8,56.17,64,0,5.06
15,Bathsheba,BB,2021-12-05 23:04:48,13.2167,-59.5167,81.21,74,40,20.71
16,Kavieng,PG,2021-12-05 23:04:48,-2.5744,150.7967,82.63,79,95,7.31
17,Isangel,VU,2021-12-05 23:04:48,-19.55,169.2667,82.99,67,21,7.76
18,Praia,CV,2021-12-05 23:04:49,14.9215,-23.5087,72.14,83,0,18.41
19,Makakilo City,US,2021-12-05 23:04:49,21.3469,-158.0858,71.92,77,90,5.75
20,Bluff,NZ,2021-12-05 23:04:49,-46.6,168.3333,54.81,50,59,14.12
21,Albany,US,2021-12-05 23:04:49,42.6001,-73.9662,37.67,62,97,4.61
22,Tikhvin,RU,2021-12-05 23:04:50,59.6451,33.5294,-5.94,96,28,4.99
23,Salalah,OM,2021-12-05 23:04:50,17.0151,54.0924,71.31,41,0,7.54
24,Puerto Ayora,EC,2021-12-05 23:04:50,-0.7393,-90.3518,69.64,85,53,9.62
25,Bredasdorp,ZA,2021-12-05 23:02:12,-34.5322,20.0403,60.28,96,100,8.48
26,Kang,BW,2021-12-05 23:04:16,-23.6752,22.7876,68.68,76,69,5.14
27,Wattegama,LK,2021-12-05 23:04:51,6.7989,81.4808,73.11,96,5,1.99
28,Atuona,PF,2021-12-05 23:04:51,-9.8,-139.0333,78.46,76,5,18.14
29,Tasiilaq,GL,2021-12-05 23:04:48,65.6145,-37.6368,29.86,92,99,24.56
30,Vaini,TO,2021-12-05 23:03:03,-21.2,-175.2,84.36,84,40,11.5
31,Noumea,NC,2021-12-05 23:00:12,-22.2763,166.4572,84.99,99,90,5.14
32,Kahului,US,2021-12-05 23:04:52,20.8947,-156.47,73.85,90,90,9.22
33,Hilo,US,2021-12-05 23:04:52,19.7297,-155.09,76.73,91,90,17.27
34,Okha,RU,2021-12-05 23:04:53,53.5739,142.9478,8.33,94,84,5.86
35,Ballina,AU,2021-12-05 23:04:53,-28.8667,153.5667,68.18,98,72,7.92
36,Rikitea,PF,2021-12-05 23:04:53,-23.1203,-134.9692,76.5,74,99,8.61
37,Bambous Virieux,MU,2021-12-05 23:04:53,-20.3428,57.7575,78.22,71,28,11.32
38,Roebourne,AU,2021-12-05 23:04:54,-20.7833,117.1333,89.2,26,41,18.23
39,Port Blair,IN,2021-12-05 23:04:54,11.6667,92.75,78.39,70,24,11.43
40,Pochutla,MX,2021-12-05 23:04:55,15.7432,-96.4661,85.82,59,0,5.95
41,Dikson,RU,2021-12-05 23:04:55,73.5069,80.5464,-2.0,94,100,9.86
42,Cidreira,BR,2021-12-05 23:04:55,-30.1811,-50.2056,69.64,87,50,14.76
43,East London,ZA,2021-12-05 23:00:11,-33.0153,27.9116,68.79,94,100,4.61
44,Katsuura,JP,2021-12-05 23:04:56,35.1333,140.3,50.18,74,100,8.63
45,Nemuro,JP,2021-12-05 23:04:56,43.3236,145.575,38.12,73,3,15.3
46,Lebu,CL,2021-12-05 23:04:56,-37.6167,-73.65,61.21,74,0,14.38
47,Mount Pleasant,US,2021-12-05 23:04:57,32.7941,-79.8626,62.74,91,20,3.0
48,Avarua,CK,2021-12-05 23:03:47,-21.2078,-159.775,82.45,83,20,6.91
49,Hobyo,SO,2021-12-05 23:05:57,5.3505,48.5268,78.42,77,16,15.64
50,Khatanga,RU,2021-12-05 23:05:58,71.9667,102.5,-22.14,100,97,6.8
51,Margate,GB,2021-12-05 23:05:58,51.3813,1.3862,42.96,91,85,17.85
52,Barrow,US,2021-12-05 23:02:05,71.2906,-156.7887,12.22,79,90,21.85
53,Talnakh,RU,2021-12-05 23:02:32,69.4865,88.3972,-16.8,99,100,13.47
54,Jamestown,US,2021-12-05 23:02:14,42.097,-79.2353,44.02,37,90,11.01
55,Constitucion,CL,2021-12-05 23:01:20,-35.3333,-72.4167,63.73,68,5,4.94
56,Hami,CN,2021-12-05 23:03:29,42.8,93.45,29.12,52,99,5.37
57,Kainantu,PG,2021-12-05 23:05:59,-6.2887,145.8655,71.19,66,64,1.41
58,Bengkulu,ID,2021-12-05 23:01:58,-3.8004,102.2655,74.98,88,94,6.49
59,Hambantota,LK,2021-12-05 23:05:16,6.1241,81.1185,77.05,89,9,7.05
60,Saskylakh,RU,2021-12-05 23:05:59,71.9167,114.0833,-30.32,98,100,4.5
61,San Patricio,US,2021-12-05 23:06:00,28.017,-97.5169,79.21,79,100,14.2
62,Russell,US,2021-12-05 23:03:40,32.3502,-85.1999,67.37,80,1,0.0
63,Castro,BR,2021-12-05 23:06:00,-24.7911,-50.0119,63.46,90,88,3.58
64,Sao Joao Da Barra,BR,2021-12-05 23:04:16,-21.6403,-41.0511,75.6,85,32,14.14
65,Coquimbo,CL,2021-12-05 23:03:16,-29.9533,-71.3436,58.73,82,75,11.5
66,Mus,TR,2021-12-05 23:06:01,39.0,41.75,28.62,79,66,2.64
67,Hobart,AU,2021-12-05 23:05:31,-42.8794,147.3294,64.02,58,40,3.0
68,Airai,TL,2021-12-05 23:06:01,-8.9266,125.4092,65.5,85,99,1.07
69,Ponta Do Sol,PT,2021-12-05 23:05:03,32.6667,-17.1,65.03,71,27,9.31
70,Tuktoyaktuk,CA,2021-12-05 23:06:02,69.4541,-133.0374,-15.3,81,38,9.37
71,Fortuna,US,2021-12-05 23:05:30,40.5982,-124.1573,54.32,91,90,1.01
72,Popova,RU,2021-12-05 23:06:02,42.9603,131.7228,35.13,73,4,2.15
73,Hudiksvall,SE,2021-12-05 23:06:03,61.729,17.1036,11.5,85,100,5.14
74,Broken Hill,AU,2021-12-05 23:06:03,-31.95,141.4333,77.86,22,49,9.28
75,Provideniya,RU,2021-12-05 23:02:34,64.3833,-173.3,28.51,93,90,24.61
76,Lompoc,US,2021-12-05 23:03:06,34.6391,-120.4579,80.02,72,1,15.43
77,Upernavik,GL,2021-12-05 23:06:04,72.7868,-56.1549,25.09,74,100,3.29
78,Kruisfontein,ZA,2021-12-05 23:05:26,-34.0033,24.7314,62.89,92,73,10.11
79,Asau,RO,2021-12-05 23:06:04,46.4333,26.4,33.96,82,93,3.33
80,Hithadhoo,MV,2021-12-05 23:02:06,-0.6,73.0833,81.27,78,100,12.3
81,Petrovskaya,RU,2021-12-05 23:06:04,45.4314,37.955,45.09,83,100,1.7
82,Hargeysa,SO,2021-12-05 23:06:05,9.56,44.065,55.65,96,31,6.44
83,Iqaluit,CA,2021-12-05 23:06:05,63.7506,-68.5145,9.7,72,100,13.0
84,San Vicente,AR,2021-12-05 23:06:05,-26.6167,-54.1333,75.34,50,18,2.51
85,Eureka,US,2021-12-05 23:03:04,40.8021,-124.1637,54.57,84,70,3.0
86,Palmer,US,2021-12-05 23:06:06,42.1584,-72.3287,38.8,63,75,3.44
87,Khipro,PK,2021-12-05 23:06:06,25.8285,69.3772,65.28,22,0,6.85
88,Takoradi,GH,2021-12-05 23:06:07,4.8845,-1.7554,80.56,84,48,8.72
89,Kysyl-Syr,RU,2021-12-05 23:06:07,63.8986,122.7617,-29.6,96,47,5.77
90,Longyearbyen,SJ,2021-12-05 23:03:09,78.2186,15.6401,15.64,73,75,11.5
91,Cerritos,US,2021-12-05 23:06:07,33.8583,-118.0648,78.78,70,1,1.01
92,Port Alfred,ZA,2021-12-05 23:04:28,-33.5906,26.891,68.59,92,100,5.99
93,Hermanus,ZA,2021-12-05 23:02:11,-34.4187,19.2345,60.91,94,100,10.36
94,Lavrentiya,RU,2021-12-05 23:07:08,65.5833,-171.0,29.25,96,100,19.08
95,Paso De Los Toros,UY,2021-12-05 23:07:08,-32.8167,-56.5167,67.24,79,71,13.69
96,Kapaa,US,2021-12-05 23:02:16,22.0752,-159.319,78.19,71,93,4.0
97,College,US,2021-12-05 23:07:09,64.8569,-147.8028,8.29,76,75,3.44
98,Moose Factory,CA,2021-12-05 23:07:09,51.2585,-80.6094,5.09,97,67,3.42
99,Lagoa,PT,2021-12-05 23:07:09,39.05,-27.9833,63.07,75,84,11.9
100,Haines Junction,CA,2021-12-05 23:05:18,60.7522,-137.5108,0.66,99,100,2.13
101,Islamabad,PK,2021-12-05 23:04:46,33.7104,73.1338,50.85,84,3,4.72
102,Arona,ES,2021-12-05 23:05:03,28.0996,-16.681,62.8,64,20,27.63
103,Santa Cruz De Tenerife,ES,2021-12-05 23:07:10,28.4682,-16.2546,69.69,77,40,7.0
104,Pacific Grove,US,2021-12-05 23:05:04,36.6177,-121.9166,72.3,84,40,3.0
105,Erenhot,CN,2021-12-05 23:04:53,43.6475,111.9767,21.09,81,3,2.21
106,Torbay,CA,2021-12-05 23:03:15,47.6666,-52.7314,32.76,78,25,4.0
107,Colchester,GB,2021-12-05 23:02:29,51.8892,0.9042,42.24,90,76,10.92
108,Selkirk,CA,2021-12-05 23:04:24,50.1436,-96.8845,15.1,89,100,19.46
109,Hofn,IS,2021-12-05 23:03:11,64.2539,-15.2082,41.11,95,100,30.89
110,Punta Arenas,CL,2021-12-05 23:05:59,-53.15,-70.9167,53.71,43,20,18.41
111,Luderitz,,2021-12-05 23:06:05,-26.6481,15.1594,60.75,88,0,10.04
112,Lock Haven,US,2021-12-05 23:07:11,41.137,-77.4469,47.35,45,100,11.74
113,Ilulissat,GL,2021-12-05 23:03:22,69.2167,-51.1,30.22,64,75,13.8
114,Shilong,CN,2021-12-05 23:07:12,23.1123,113.8425,60.1,42,10,5.28
115,Labuhan,ID,2021-12-05 23:07:12,-6.8844,112.2051,78.49,80,100,6.38
116,Terralba,IT,2021-12-05 23:07:12,39.7192,8.6392,45.01,82,95,13.33
117,Chokurdakh,RU,2021-12-05 23:03:23,70.6333,147.9167,-42.14,99,57,5.82
118,Yuli,NG,2021-12-05 23:07:13,9.6989,10.2744,77.47,26,33,6.02
119,Rosetta,EG,2021-12-05 23:07:13,31.4044,30.4164,65.71,67,67,5.7
120,Kilis,TR,2021-12-05 23:07:13,36.7161,37.115,37.63,44,0,4.81
121,Rocha,UY,2021-12-05 23:06:27,-34.4833,-54.3333,61.07,97,86,5.23
122,Merauke,ID,2021-12-05 23:04:48,-8.4667,140.3333,81.23,79,100,3.78
123,Agadez,NE,2021-12-05 23:07:14,19.75,10.25,60.24,22,44,5.03
124,New Norfolk,AU,2021-12-05 23:02:29,-42.7826,147.0587,63.66,49,45,3.0
125,Port Hardy,CA,2021-12-05 23:06:56,50.6996,-127.4199,36.75,68,100,7.09
126,Gotsu,JP,2021-12-05 23:07:14,35.0,132.2167,45.55,73,15,6.02
127,Petropavlovsk-Kamchatskiy,RU,2021-12-05 23:07:15,53.0452,158.6483,25.39,63,75,8.95
128,Neiafu,TO,2021-12-05 23:07:15,-18.65,-173.9833,81.28,83,75,9.22
129,Qandala,SO,2021-12-05 23:07:15,11.472,49.8728,73.94,66,8,4.45
130,Grand Gaube,MU,2021-12-05 23:07:16,-20.0064,57.6608,78.39,70,7,4.0
131,Wenling,CN,2021-12-05 23:07:16,28.3669,121.36,46.9,82,3,7.72
132,Valleyview,CA,2021-12-05 23:07:16,55.0667,-117.2859,4.53,85,2,4.43
133,Codrington,AU,2021-12-05 23:07:17,-38.2667,141.9667,70.02,41,99,10.29
134,Harper,LR,2021-12-05 23:04:33,4.375,-7.7169,80.4,81,24,8.75
135,Sao Felix Do Xingu,BR,2021-12-05 23:03:52,-6.6447,-51.995,73.02,95,95,1.3
136,Nokaneng,BW,2021-12-05 23:07:17,-19.6667,22.2667,72.45,65,100,4.88
137,Pevek,RU,2021-12-05 23:04:58,69.7008,170.3133,-9.47,96,100,17.13
138,Viet Tri,VN,2021-12-05 23:07:18,21.3019,105.4308,55.35,66,20,2.01
139,Makkaveyevo,RU,2021-12-05 23:07:18,51.7533,113.9454,20.12,93,18,1.5
140,Saint George,US,2021-12-05 23:08:18,37.1041,-113.5841,70.36,24,1,1.01
141,Metro,ID,2021-12-05 23:03:38,-5.1131,105.3067,73.62,97,100,4.41
142,Kirakira,SB,2021-12-05 23:05:17,-10.4544,161.9205,82.0,83,99,11.23
143,Kutum,SD,2021-12-05 23:08:19,14.2,24.6667,63.3,23,6,7.87
144,Kuah,MY,2021-12-05 23:06:35,6.3265,99.8432,78.1,71,78,14.45
145,Vila Velha,BR,2021-12-05 23:04:18,-20.3297,-40.2925,78.75,87,40,7.0
146,Yellowknife,CA,2021-12-05 23:08:19,62.456,-114.3525,-20.58,92,22,4.94
147,Roma,US,2021-12-05 23:08:20,43.2128,-75.4557,40.12,76,90,8.05
148,Wagga Wagga,AU,2021-12-05 23:08:20,-35.1167,147.3667,65.61,48,100,16.87
149,Mar Del Plata,AR,2021-12-05 23:08:20,-38.0023,-57.5575,63.88,77,9,15.01
150,Cape Canaveral,US,2021-12-05 23:08:21,28.4058,-80.6048,73.98,76,90,4.61
151,Novyye Burasy,RU,2021-12-05 23:08:21,52.1324,46.0714,23.95,76,50,5.26
152,Vila Franca Do Campo,PT,2021-12-05 23:04:02,37.7167,-25.4333,64.2,85,37,3.8
153,Cape Town,ZA,2021-12-05 23:08:09,-33.9258,18.4232,61.27,90,91,3.0
154,Zaranj,AF,2021-12-05 23:08:22,30.9667,61.8833,51.13,49,1,4.14
155,Novikovo,RU,2021-12-05 23:08:22,51.1537,37.8879,27.95,66,100,5.21
156,Nueva Helvecia,UY,2021-12-05 23:08:22,-34.3,-57.2333,63.73,85,56,11.48
157,Geraldton,AU,2021-12-05 23:08:14,-28.7667,114.6,72.12,77,1,9.22
158,Helong,CN,2021-12-05 23:05:52,42.5397,128.9972,28.13,84,9,7.45
159,Wismar,DE,2021-12-05 23:08:23,53.9,11.4667,38.05,96,100,3.0
160,Muhos,FI,2021-12-05 23:08:23,64.808,25.9931,3.88,98,25,3.29
161,Bethel,US,2021-12-05 23:07:30,41.3712,-73.414,43.16,53,75,4.61
162,Madisonville,US,2021-12-05 23:05:43,37.3281,-87.4989,66.24,89,41,4.0
163,Carnarvon,AU,2021-12-05 23:08:24,-24.8667,113.6333,77.07,69,0,17.27
164,Portland,US,2021-12-05 23:08:24,45.5234,-122.6762,48.2,77,75,1.01
165,Pisco,PE,2021-12-05 23:04:18,-13.7,-76.2167,68.05,83,75,16.11
166,Ugoofaaru,MV,2021-12-05 23:08:24,5.6667,73.0,81.88,75,46,9.75
167,Clyde River,CA,2021-12-05 23:08:25,70.4692,-68.5914,6.94,93,100,24.25
168,San Cristobal,VE,2021-12-05 23:08:25,7.7669,-72.225,75.38,74,75,2.01
169,Gazli,UZ,2021-12-05 23:08:25,40.1333,63.45,40.28,79,0,8.9
170,Esperance,AU,2021-12-05 23:04:50,-33.8667,121.9,62.96,65,88,11.92
171,Guerrero Negro,MX,2021-12-05 23:07:24,27.9769,-114.0611,67.44,69,0,16.22
172,Madaoua,NE,2021-12-05 23:08:26,14.073,5.96,71.49,16,4,10.58
173,Ariquemes,BR,2021-12-05 23:05:05,-9.9133,-63.0408,74.7,98,98,0.92
174,Lagos,NG,2021-12-05 23:08:26,6.5833,3.75,79.74,85,86,4.29
175,Tiksi,RU,2021-12-05 23:08:27,71.6872,128.8694,-16.01,95,100,6.11
176,Ecatepec,MX,2021-12-05 23:06:58,19.6011,-99.0525,72.68,28,40,9.22
177,Sibolga,ID,2021-12-05 23:08:27,1.7427,98.7792,75.31,86,89,3.58
178,Georgetown,MY,2021-12-05 23:05:13,5.4112,100.3354,77.9,77,20,9.22
179,Alekseyevsk,RU,2021-12-05 23:08:27,57.8406,108.3492,19.92,95,100,8.1
180,Wonthaggi,AU,2021-12-05 23:08:28,-38.6044,145.5913,76.37,66,99,6.35
181,Chakrata,IN,2021-12-05 23:08:28,30.7,77.85,38.75,76,44,5.84
182,Qaanaaq,GL,2021-12-05 23:08:28,77.484,-69.3632,20.52,81,100,6.4
183,Masumbwe,TZ,2021-12-05 23:08:29,-3.6333,32.1833,65.59,79,100,2.53
184,Aspindza,GE,2021-12-05 23:08:29,41.5739,43.2483,32.47,75,8,5.46
185,Copacabana,CO,2021-12-05 23:08:29,6.3463,-75.5089,72.03,97,100,2.89
186,Buala,SB,2021-12-05 23:05:59,-8.145,159.5921,80.4,85,100,14.56
187,Havoysund,NO,2021-12-05 23:09:30,70.9963,24.6622,29.28,94,99,31.21
188,Santa Rosa,PH,2021-12-05 23:09:30,14.3122,121.1114,74.86,72,78,7.49
189,Kshenskiy,RU,2021-12-05 23:09:30,51.8408,37.7136,27.66,66,100,5.39
190,Novobirilyussy,RU,2021-12-05 23:09:31,56.9514,90.6661,30.9,90,100,13.71
191,Barra Do Garcas,BR,2021-12-05 23:09:31,-15.89,-52.2567,76.84,82,62,3.49
192,Tezu,IN,2021-12-05 23:09:32,27.9167,96.1667,64.22,60,91,3.06
193,Boa Vista,BR,2021-12-05 23:09:32,2.8197,-60.6733,84.18,61,75,9.22
194,Ribeira Grande,PT,2021-12-05 23:09:32,38.5167,-28.7,63.93,73,72,7.83
195,Longmont,US,2021-12-05 23:09:28,40.1672,-105.1019,61.84,49,1,16.11
196,Gourcy,BF,2021-12-05 23:09:33,13.2167,-2.35,76.08,13,2,9.8
197,Fort Nelson,CA,2021-12-05 23:08:39,58.8053,-122.7002,-9.69,96,5,0.11
198,Lafiagi,NG,2021-12-05 23:09:33,8.8667,5.4167,82.2,26,77,3.15
199,Saint-Philippe,RE,2021-12-05 23:06:13,-21.3585,55.7679,76.55,79,37,10.47
200,Fort Frances,CA,2021-12-05 23:07:00,48.5999,-93.4003,25.02,69,90,5.99
201,Husavik,IS,2021-12-05 23:07:38,66.0449,-17.3389,39.79,73,100,27.47
202,Helena,US,2021-12-05 23:07:16,46.5927,-112.0361,28.17,65,75,3.0
203,Shimoda,JP,2021-12-05 23:04:59,34.6667,138.95,49.1,83,100,16.11
204,Bosconia,CO,2021-12-05 23:09:34,9.9689,-73.8836,83.19,61,82,4.94
205,Deputatskiy,RU,2021-12-05 23:05:38,69.3,139.9,-24.68,97,100,2.91
206,Nikolskoye,RU,2021-12-05 23:09:35,59.7035,30.7861,-0.6,97,8,4.56
207,Riyadh,SA,2021-12-05 23:07:17,24.6877,46.7219,55.54,35,4,2.89
208,San Ignacio,BZ,2021-12-05 23:07:09,17.1561,-89.0714,84.34,61,0,0.0
209,Abay,KZ,2021-12-05 23:09:35,49.6311,72.8539,32.38,92,100,5.95
210,Strezhevoy,RU,2021-12-05 23:09:35,60.7333,77.5889,-0.02,99,100,4.38
211,Norman Wells,CA,2021-12-05 23:09:36,65.282,-126.8329,-11.74,81,72,4.74
212,Richards Bay,ZA,2021-12-05 23:09:36,-28.783,32.0377,76.96,75,96,14.88
213,Zhigansk,RU,2021-12-05 23:09:36,66.7697,123.3711,-28.28,95,100,6.62
214,Chuy,UY,2021-12-05 23:05:09,-33.6971,-53.4616,65.3,82,98,7.87
215,Havre-Saint-Pierre,CA,2021-12-05 23:09:37,50.2334,-63.5986,24.55,54,75,13.2
216,Paamiut,GL,2021-12-05 23:09:13,61.994,-49.6678,25.16,68,100,13.98
217,Port Elizabeth,ZA,2021-12-05 23:09:37,-33.918,25.5701,65.1,100,90,20.71
218,Baependi,BR,2021-12-05 23:09:37,-21.9589,-44.89,64.87,88,18,3.02
219,Honiara,SB,2021-12-05 23:09:38,-9.4333,159.95,84.96,72,90,4.18
220,Cabo San Lucas,MX,2021-12-05 23:07:03,22.8909,-109.9124,81.52,58,75,2.3
221,Santa Isabel Do Rio Negro,BR,2021-12-05 23:09:38,-0.4139,-65.0192,75.42,95,95,2.39
222,Nantai,CN,2021-12-05 23:09:39,40.9241,122.8044,33.87,66,97,8.93
223,Kachug,RU,2021-12-05 23:09:39,53.9606,105.8817,11.34,96,100,1.14
224,Mitu,CO,2021-12-05 23:09:39,1.1983,-70.1733,74.93,92,88,1.66
225,Mokhotlong,LS,2021-12-05 23:09:40,-29.2894,29.0675,53.24,82,100,2.33
226,Nova Olimpia,BR,2021-12-05 23:09:40,-14.7972,-57.2881,76.62,90,99,0.89
227,Gorontalo,ID,2021-12-05 23:09:40,0.5412,123.0595,78.64,89,89,2.77
228,Puerto Quijarro,BO,2021-12-05 23:09:41,-17.7833,-57.7667,73.2,94,100,2.15
229,Nome,US,2021-12-05 23:09:41,64.5011,-165.4064,32.07,87,90,26.46
230,Beringovskiy,RU,2021-12-05 23:06:35,63.05,179.3167,6.84,81,100,35.99
231,Vryburg,ZA,2021-12-05 23:10:41,-26.9566,24.7284,61.77,73,72,4.5
232,Palimbang,PH,2021-12-05 23:10:42,6.2106,124.1894,79.45,82,10,3.06
233,Praia Da Vitoria,PT,2021-12-05 23:10:42,38.7333,-27.0667,60.76,82,42,4.88
234,Makarov,RU,2021-12-05 23:10:42,48.6333,142.8,37.69,81,13,15.17
235,Pasighat,IN,2021-12-05 23:10:43,28.0667,95.3333,63.07,61,81,3.2
236,Arraial Do Cabo,BR,2021-12-05 23:10:43,-22.9661,-42.0278,74.62,86,49,20.18
237,Santo Domingo,DO,2021-12-05 23:05:52,18.5001,-69.9886,79.03,86,40,4.0
238,Apache Junction,US,2021-12-05 23:10:11,33.4151,-111.5496,76.51,24,1,5.99
239,Yerbogachen,RU,2021-12-05 23:10:44,61.2767,108.0108,-23.57,100,92,2.46
240,Adre,TD,2021-12-05 23:10:44,13.4667,22.2,70.92,24,51,14.32
241,Ketchikan,US,2021-12-05 23:10:44,55.3422,-131.6461,30.67,80,90,0.0
242,Zyryanka,RU,2021-12-05 23:08:19,65.75,150.85,-43.55,96,88,5.61
243,Coahuayana,MX,2021-12-05 23:10:45,18.7333,-103.6833,89.08,65,97,3.56
244,Caravelas,BR,2021-12-05 23:07:05,-17.7125,-39.2481,74.43,87,0,5.01
245,Mahebourg,MU,2021-12-05 23:10:11,-20.4081,57.7,78.26,72,24,11.21
246,Kautokeino,NO,2021-12-05 23:10:46,69.0125,23.0412,-21.84,100,99,6.08
247,Victoria,HK,2021-12-05 23:10:46,22.2855,114.1577,64.33,57,34,1.01
248,La Ronge,CA,2021-12-05 23:10:46,55.1001,-105.2842,-9.9,89,86,8.05
249,Shache,CN,2021-12-05 23:10:46,38.4167,77.2406,29.34,34,100,1.9
250,Punta De Bombon,PE,2021-12-05 23:10:47,-17.1717,-71.7931,67.93,81,98,2.75
251,Portsmouth,GB,2021-12-05 23:09:33,50.799,-1.0913,42.73,91,82,3.0
252,Mayskiy,RU,2021-12-05 23:10:47,47.6931,40.1025,38.44,89,100,3.24
253,Dukat,RU,2021-12-05 23:10:48,62.55,155.55,-32.39,100,44,5.14
254,Rawlins,US,2021-12-05 23:10:48,41.7911,-107.2387,32.22,57,1,17.27
255,Tuatapere,NZ,2021-12-05 23:10:48,-46.1333,167.6833,54.82,51,84,6.85
256,Voh,NC,2021-12-05 23:10:48,-20.9667,164.7,86.11,61,10,2.1
257,Butaritari,KI,2021-12-05 23:10:49,3.0707,172.7902,80.82,83,100,11.97
258,Acapulco,MX,2021-12-05 23:10:49,16.8634,-99.8901,84.02,74,1,5.75
259,Cap Malheureux,MU,2021-12-05 23:10:50,-19.9842,57.6142,78.48,70,5,5.99
260,Novaya Bryan,RU,2021-12-05 23:10:50,51.7159,108.2691,3.97,95,52,2.15
261,Vega De Alatorre,MX,2021-12-05 23:10:50,20.0333,-96.6333,78.67,77,4,12.75
262,Yar-Sale,RU,2021-12-05 23:10:50,66.8333,70.8333,-15.39,91,32,14.45
263,Hasaki,JP,2021-12-05 23:10:51,35.7333,140.8333,46.29,62,100,9.71
264,Novyy Urgal,RU,2021-12-05 23:10:51,51.0736,132.5642,4.89,97,100,1.39
265,Maraba,BR,2021-12-05 23:10:52,-5.3686,-49.1178,78.12,81,100,0.87
266,Porto Velho,BR,2021-12-05 23:10:52,-8.7619,-63.9039,78.85,94,20,0.0
267,Korla,CN,2021-12-05 23:07:25,41.7597,86.1469,30.16,53,100,2.15
268,Berlevag,NO,2021-12-05 23:10:52,70.8578,29.0864,28.4,68,0,27.63
269,Sistranda,NO,2021-12-05 23:10:53,63.7256,8.834,22.96,69,81,14.5
270,Klaksvik,FO,2021-12-05 23:10:12,62.2266,-6.589,38.32,64,50,19.48
271,Goderich,CA,2021-12-05 23:10:54,43.7501,-81.7165,30.9,90,100,27.74
272,Magadan,RU,2021-12-05 23:10:54,59.5667,150.8,-8.16,90,28,6.64
273,Paramonga,PE,2021-12-05 23:08:56,-10.6667,-77.8333,67.12,86,100,10.29
274,Rzeszow,PL,2021-12-05 23:10:01,50.0413,21.999,35.33,91,90,6.91
275,Bilibino,RU,2021-12-05 23:11:54,68.0546,166.4372,-19.23,99,100,2.53
276,Waipawa,NZ,2021-12-05 23:11:55,-41.4122,175.5153,51.46,96,100,7.18
277,Cabra,ES,2021-12-05 23:11:55,37.4725,-4.4421,47.64,81,3,2.42
278,Quelimane,MZ,2021-12-05 23:11:55,-17.8786,36.8883,78.15,77,1,6.62
279,Alto Araguaia,BR,2021-12-05 23:11:56,-17.3147,-53.2153,73.06,81,40,0.4
280,San Jeronimo,PE,2021-12-05 23:11:56,-11.9472,-75.2829,50.43,84,100,2.98
281,Hokitika,NZ,2021-12-05 23:11:56,-42.7167,170.9667,61.5,55,96,6.93
282,Hirara,JP,2021-12-05 23:11:57,24.8,125.2833,70.36,70,31,20.36
283,Marawi,PH,2021-12-05 23:11:57,7.9986,124.2928,64.65,94,100,2.15
284,Gangtok,IN,2021-12-05 23:11:57,27.3333,88.6167,48.7,61,38,5.57
285,Whitehorse,CA,2021-12-05 23:11:28,60.7161,-135.0538,-5.91,83,75,20.0
286,Stornoway,GB,2021-12-05 23:11:58,58.2093,-6.3865,41.94,71,75,8.01
287,Anderson,US,2021-12-05 23:11:58,34.5334,-82.6499,59.88,76,90,1.99
288,Mandalgovi,MN,2021-12-05 23:11:58,45.7625,106.2708,18.0,47,0,9.44
289,Dharampur,IN,2021-12-05 23:11:59,20.5333,73.1833,69.3,76,0,2.24
290,Torbat-E Jam,IR,2021-12-05 23:11:59,35.244,60.6225,40.62,54,4,1.61
291,Maumere,ID,2021-12-05 23:12:00,-8.6199,122.2111,79.29,79,100,2.08
292,Kaitangata,NZ,2021-12-05 23:12:00,-46.2817,169.8464,53.92,56,92,8.08
293,Olafsvik,IS,2021-12-05 23:12:00,64.8945,-23.7142,41.23,90,100,7.11
294,Angoche,MZ,2021-12-05 23:12:00,-16.2325,39.9086,77.14,87,2,6.82
295,Faanui,PF,2021-12-05 23:12:01,-16.4833,-151.75,81.37,66,44,17.02
296,Brae,GB,2021-12-05 23:08:13,60.3964,-1.353,40.91,62,78,8.14
297,Mayor Pablo Lagerenza,PY,2021-12-05 23:12:01,-19.9309,-60.7718,73.96,79,99,5.01
298,Los Llanos De Aridane,ES,2021-12-05 23:12:02,28.6585,-17.9182,62.35,67,75,17.0
299,Le Port,RE,2021-12-05 23:12:02,-20.9373,55.2919,76.96,79,25,4.56
300,Heyang,CN,2021-12-05 23:12:02,26.1011,107.473,45.7,91,0,2.26
301,San Andres,CO,2021-12-05 23:12:03,12.5847,-81.7006,82.42,78,40,12.66
302,Serta,PT,2021-12-05 23:12:03,39.8085,-8.0988,52.0,85,89,9.86
303,Ancud,CL,2021-12-05 23:12:03,-41.8697,-73.8203,71.13,68,38,5.48
304,Thompson,CA,2021-12-05 23:12:04,55.7435,-97.8558,-15.39,91,43,7.52
305,Casa Nova,BR,2021-12-05 23:12:04,-9.4167,-41.1333,76.98,58,53,18.92
306,Lahaina,US,2021-12-05 23:12:04,20.8783,-156.6825,73.81,90,100,14.67
307,Puerto Escondido,MX,2021-12-05 23:12:05,15.85,-97.0667,85.03,65,1,5.75
308,Lichuan,CN,2021-12-05 23:12:05,30.3,108.85,39.47,88,0,1.63
309,Sambava,MG,2021-12-05 23:12:05,-14.2667,50.1667,74.88,88,6,9.51
310,Diego De Almagro,CL,2021-12-05 23:12:06,-26.3667,-70.05,75.58,17,17,7.76
311,Iracoubo,GF,2021-12-05 23:12:06,5.4802,-53.2011,77.83,88,97,8.61
312,Tacoronte,ES,2021-12-05 23:12:06,28.4769,-16.4102,63.21,76,40,11.01
313,Ust-Tsilma,RU,2021-12-05 23:12:07,65.441,52.1498,6.08,97,84,4.52
314,Sorland,NO,2021-12-05 23:12:07,67.667,12.6934,26.83,65,76,10.69
315,Najran,SA,2021-12-05 23:12:07,17.4924,44.1277,56.14,38,0,1.48
316,Sioux Lookout,CA,2021-12-05 23:12:08,50.1001,-91.917,21.58,95,100,5.23
317,Abu Kamal,SY,2021-12-05 23:12:08,34.4506,40.9171,52.79,43,9,6.82
318,Flin Flon,CA,2021-12-05 23:11:10,54.7682,-101.865,-10.21,84,86,9.55
319,Santo Antonio Do Taua,BR,2021-12-05 23:13:08,-1.1519,-48.1294,75.15,94,64,4.52
320,Mayumba,GA,2021-12-05 23:13:09,-3.432,10.6554,78.58,90,100,4.18
321,Sorong,ID,2021-12-05 23:13:09,-0.8833,131.25,81.14,83,96,4.5
322,Ust-Kuyga,RU,2021-12-05 23:13:09,70.0167,135.6,-24.59,100,100,3.15
323,Tokur,RU,2021-12-05 23:11:23,53.1333,132.9,3.6,97,100,3.38
324,Kanniyakumari,IN,2021-12-05 23:13:10,8.0833,77.5667,79.43,82,80,7.4
325,Yeola,IN,2021-12-05 23:13:10,20.0333,74.4833,70.61,59,98,7.34
326,Atar,MR,2021-12-05 23:13:10,20.5169,-13.0499,69.6,15,100,10.31
327,Liverpool,GB,2021-12-05 23:09:47,53.4106,-2.9779,40.77,90,75,1.01
328,Colwyn Bay,GB,2021-12-05 23:13:11,53.2948,-3.7267,42.82,87,97,5.01
329,Nanortalik,GL,2021-12-05 23:13:11,60.1432,-45.2371,27.07,68,96,34.9
330,Aksu,CN,2021-12-05 23:10:30,41.1231,80.2644,29.61,46,100,1.03
331,Deder,ET,2021-12-05 23:13:12,9.3167,41.45,51.8,47,1,1.3
332,Juneau,US,2021-12-05 23:13:12,58.3019,-134.4197,28.22,94,90,12.66
333,Saint-Augustin,CA,2021-12-05 23:13:12,51.226,-58.6502,22.55,61,100,8.1
334,Solnechnyy,RU,2021-12-05 23:12:19,50.7214,136.6319,10.8,94,97,4.63
335,Duki,PK,2021-12-05 23:13:13,30.1541,68.5728,48.13,44,0,4.83
336,North Bend,US,2021-12-05 23:13:13,43.4065,-124.2243,53.51,86,1,3.44
337,Darhan,MN,2021-12-05 23:13:14,49.4867,105.9228,12.47,85,17,7.65
338,Wolfhagen,DE,2021-12-05 23:13:14,51.3261,9.1702,36.1,89,99,1.52
339,Sungai Padi,TH,2021-12-05 23:13:14,6.0851,101.8766,69.48,92,83,1.99
340,Provost,CA,2021-12-05 23:11:21,52.3501,-110.2683,-0.42,86,64,9.46
341,Mabama,TZ,2021-12-05 23:13:15,-5.1333,32.5333,71.19,60,99,3.47
342,Qaqortoq,GL,2021-12-05 23:13:15,60.7167,-46.0333,25.3,68,100,23.62
343,Ostrovnoy,RU,2021-12-05 23:08:51,68.0531,39.5131,9.59,73,83,23.38
344,Mackay,AU,2021-12-05 23:10:21,-21.15,149.2,86.68,64,88,12.88
345,Tynda,RU,2021-12-05 23:13:16,55.1667,124.7167,0.82,99,98,3.15
346,Sayyan,YE,2021-12-05 23:09:12,15.1718,44.3244,47.41,32,0,2.98
347,Maceio,BR,2021-12-05 23:13:16,-9.6658,-35.7353,76.44,94,75,1.14
348,Saint-Joseph,RE,2021-12-05 23:09:53,-21.3667,55.6167,75.56,79,42,9.53
349,Alofi,NU,2021-12-05 23:13:17,-19.0595,-169.9187,78.62,83,71,19.53
350,Severo-Kurilsk,RU,2021-12-05 23:13:17,50.6789,156.125,31.68,77,94,16.49
351,Labuan,MY,2021-12-05 23:13:17,5.2767,115.2417,77.16,77,100,7.16
352,Krutinka,RU,2021-12-05 23:13:18,56.0055,71.5113,28.49,96,100,8.88
353,Pokhvistnevo,RU,2021-12-05 23:13:18,53.6524,52.1274,25.27,94,97,3.42
354,Mashivka,UA,2021-12-05 23:13:19,49.4431,34.8669,31.33,82,100,5.5
355,Hualmay,PE,2021-12-05 23:13:19,-11.0964,-77.6139,67.33,84,100,10.49
356,Vardo,NO,2021-12-05 23:13:19,70.3705,31.1107,7.0,78,19,22.3
357,Teguise,ES,2021-12-05 23:13:19,29.0605,-13.564,61.02,77,20,16.11
358,Kushima,JP,2021-12-05 23:13:20,31.4583,131.2333,51.67,75,78,4.65
359,Xining,CN,2021-12-05 23:13:20,36.6167,101.7667,24.48,43,5,0.4
360,Sao Filipe,CV,2021-12-05 23:10:51,14.8961,-24.4956,75.49,73,66,12.39
361,Nola,IT,2021-12-05 23:14:21,40.922,14.5329,49.57,90,100,1.74
362,Serenje,ZM,2021-12-05 23:14:21,-13.2325,30.2352,67.89,50,23,4.92
363,Aleksandrovsk-Sakhalinskiy,RU,2021-12-05 23:14:21,50.8975,142.1561,31.33,79,21,17.38
364,Adrar,MR,2021-12-05 23:14:22,20.5022,-10.0711,61.5,13,100,10.47
365,Nichinan,JP,2021-12-05 23:14:22,31.6,131.3667,52.14,76,86,7.11
366,Gat,IL,2021-12-05 23:14:22,31.61,34.7642,61.39,55,26,9.33
367,Monroe,US,2021-12-05 23:14:23,43.1501,-77.6831,39.58,64,90,13.8
368,Half Moon Bay,US,2021-12-05 23:13:44,37.4636,-122.4286,69.31,75,1,1.99
369,Marrakesh,MA,2021-12-05 23:11:23,31.6315,-8.0083,50.07,57,0,4.61
370,Kismayo,SO,2021-12-05 23:14:23,-0.3582,42.5454,79.75,75,43,11.61
371,Faya,SA,2021-12-05 23:14:23,18.3851,42.4509,48.72,70,0,1.79
372,Puerto Carreno,CO,2021-12-05 23:14:24,6.189,-67.4859,88.21,47,77,10.31
373,Saldanha,ZA,2021-12-05 23:14:24,-33.0117,17.9442,60.85,93,14,16.93
374,Uni,RU,2021-12-05 23:14:24,57.7535,51.4923,-2.67,96,25,6.26
375,Alta Floresta,BR,2021-12-05 23:14:25,-9.8756,-56.0861,73.49,95,99,2.98
376,Rangapara,IN,2021-12-05 23:14:25,26.8167,92.65,63.37,75,78,4.99
377,Dingle,PH,2021-12-05 23:11:06,10.9995,122.6711,73.22,89,40,6.87
378,Huilong,CN,2021-12-05 23:14:25,31.8111,121.655,54.03,79,0,5.79
379,Ust-Uda,RU,2021-12-05 23:14:26,54.1742,103.0304,9.41,99,99,3.2
380,Maracas,BR,2021-12-05 23:14:26,-13.4411,-40.4308,63.82,95,12,7.31
381,Kolyvan,RU,2021-12-05 23:14:26,55.3053,82.7391,28.06,94,76,10.78
382,Irondale,US,2021-12-05 23:10:57,33.5382,-86.7072,70.68,74,40,9.22
383,Chicama,PE,2021-12-05 23:14:27,-7.8447,-79.1469,63.14,75,100,7.34
384,Meulaboh,ID,2021-12-05 23:14:27,4.1363,96.1285,75.85,87,93,3.69
385,Ndende,GA,2021-12-05 23:14:28,-2.4008,11.3581,73.69,99,100,0.11
386,Kuching,MY,2021-12-05 23:13:53,1.55,110.3333,73.62,100,40,2.3
387,Ashcroft,CA,2021-12-05 23:14:28,50.7165,-121.2859,32.49,40,82,2.08
388,Santander,ES,2021-12-05 23:09:36,43.4647,-3.8044,53.46,76,40,14.0
389,Sirjan,IR,2021-12-05 23:14:29,29.452,55.6814,48.11,37,7,8.55
390,Rio Grande,BR,2021-12-05 23:14:29,-32.035,-52.0986,69.94,82,21,11.92
391,Algodones,MX,2021-12-05 23:14:29,20.3888,-105.4773,77.54,75,99,3.67
392,Marsala,IT,2021-12-05 23:14:29,37.7966,12.4352,55.0,70,100,25.7
393,Agadir,MA,2021-12-05 23:12:05,30.4202,-9.5982,48.65,63,0,2.37
394,Bilma,NE,2021-12-05 23:14:30,18.6853,12.9164,65.75,18,65,6.67
395,Todos Santos,MX,2021-12-05 23:14:30,23.45,-110.2167,81.01,73,99,10.96
396,Katherine,AU,2021-12-05 23:14:31,-14.4667,132.2667,79.12,83,75,10.36
397,Lorengau,PG,2021-12-05 23:14:31,-2.0226,147.2712,86.27,72,65,16.33
398,Feira De Santana,BR,2021-12-05 23:14:31,-12.2667,-38.9667,71.94,94,10,4.59
399,Bati,ET,2021-12-05 23:14:32,11.1833,40.0167,57.25,52,0,4.18
400,Pangody,RU,2021-12-05 23:14:32,65.85,74.4859,-26.79,99,31,8.5
401,Vao,NC,2021-12-05 23:14:32,-22.6667,167.4833,76.24,81,100,16.89
402,Manta,EC,2021-12-05 23:14:33,-0.95,-80.7333,76.78,78,75,10.36
403,Comodoro Rivadavia,AR,2021-12-05 23:14:33,-45.8667,-67.5,67.86,45,0,21.85
404,Souillac,MU,2021-12-05 23:10:06,-20.5167,57.5167,78.37,74,22,10.25
405,Minab,IR,2021-12-05 23:14:33,27.1467,57.0801,68.88,50,16,1.86
406,Casper,US,2021-12-05 23:14:34,42.8666,-106.3131,19.72,81,90,7.0
407,Buluang,PH,2021-12-05 23:15:34,13.3068,123.3425,73.36,86,36,3.71
408,Herat,AF,2021-12-05 23:15:34,34.5,62.0,43.23,41,0,6.51
409,Karratha,AU,2021-12-05 23:11:17,-20.7377,116.8463,87.13,31,30,15.86
410,Namie,JP,2021-12-05 23:15:35,37.4833,141.0,40.71,90,18,2.77
411,Flinders,AU,2021-12-05 23:15:35,-34.5833,150.8552,69.19,68,98,7.27
412,Les Escoumins,CA,2021-12-05 23:15:35,48.1111,-69.0236,15.15,80,94,5.28
413,Baruun-Urt,MN,2021-12-05 23:15:36,46.6806,113.2792,18.28,71,2,8.25
414,Gao,ML,2021-12-05 23:15:36,16.6362,1.637,74.77,11,23,8.72
415,Beibei,CN,2021-12-05 23:15:36,29.8256,106.4339,57.24,77,1,1.99
416,Taltal,CL,2021-12-05 23:15:19,-25.4,-70.4833,65.77,70,26,4.72
417,Akdepe,TM,2021-12-05 23:15:37,42.0551,59.3788,28.49,78,52,9.71
418,Palauig,PH,2021-12-05 23:15:37,15.435,119.9045,75.15,68,91,5.59
419,Lemnia,RO,2021-12-05 23:15:37,46.05,26.2667,32.65,83,96,1.1
420,Westerland,DE,2021-12-05 23:15:38,54.9079,8.3033,35.19,86,90,20.71
421,Panacan,PH,2021-12-05 23:15:38,9.2463,118.4082,78.19,79,24,10.83
422,Galesong,ID,2021-12-05 23:15:38,-5.3166,119.3661,77.02,89,100,1.95
423,Whitefish,US,2021-12-05 23:15:39,48.4111,-114.3376,28.15,62,90,5.75
424,Sturgis,US,2021-12-05 23:15:39,41.7992,-85.4192,35.62,93,90,11.5
425,Belyy Yar,RU,2021-12-05 23:15:39,53.6039,91.3903,8.85,88,64,4.47
426,Hohhot,CN,2021-12-05 23:15:40,40.8106,111.6522,10.69,61,0,2.24
427,Kondopoga,RU,2021-12-05 23:15:40,62.2057,34.2614,22.69,97,98,4.97
428,Cayenne,GF,2021-12-05 23:15:40,4.9333,-52.3333,77.09,90,90,1.01
429,Turbat,PK,2021-12-05 23:15:41,26.0023,63.044,65.68,22,3,7.65
430,Broome,US,2021-12-05 23:15:41,42.2506,-75.833,41.0,59,90,1.99
431,Cherskiy,RU,2021-12-05 23:15:41,68.75,161.3,-46.23,100,86,4.12
432,Zaozerne,UA,2021-12-05 23:15:42,45.1582,33.2787,46.94,82,47,8.77
433,Metu,ET,2021-12-05 23:15:42,8.3,35.5833,58.66,68,58,3.29
434,Raudeberg,NO,2021-12-05 23:15:43,61.9875,5.1352,36.19,78,100,5.01
435,Simbahan,PH,2021-12-05 23:15:43,6.3032,120.5836,82.63,75,29,16.42
436,Aksarka,RU,2021-12-05 23:15:43,66.5606,67.7975,-16.85,91,39,13.8
437,Iquitos,PE,2021-12-05 23:15:44,-3.7481,-73.2472,77.04,94,40,2.3
438,Beloha,MG,2021-12-05 23:15:44,-25.1667,45.05,72.3,94,2,4.32
439,Dzhebariki-Khaya,RU,2021-12-05 23:15:44,62.2167,135.8,-10.66,98,100,4.43
440,Myitkyina,MM,2021-12-05 23:15:45,25.3833,97.4,60.24,85,41,1.92
441,Narsaq,GL,2021-12-05 23:15:45,60.9167,-46.05,25.02,68,100,21.85
442,Alice Springs,AU,2021-12-05 23:15:45,-23.7,133.8833,76.55,47,3,8.05
443,Korhogo,CI,2021-12-05 23:15:45,9.45,-5.6333,76.37,20,1,3.89
444,Pecos,US,2021-12-05 23:15:46,31.4229,-103.4932,78.3,19,1,3.44
445,Buchanan,LR,2021-12-05 23:15:46,5.8808,-10.0467,75.16,82,52,5.82
446,Northam,GB,2021-12-05 23:15:46,51.0333,-4.2167,42.62,78,83,4.7
447,Sakakah,SA,2021-12-05 23:15:47,29.9697,40.2064,58.57,39,88,8.99
448,Chapais,CA,2021-12-05 23:15:47,49.7834,-74.8492,1.18,98,99,4.18
449,Pedernales,DO,2021-12-05 23:15:47,18.0384,-71.744,80.44,68,7,3.51
450,Necochea,AR,2021-12-05 23:15:48,-38.5473,-58.7368,63.03,75,0,9.17
451,Mareeba,AU,2021-12-05 23:15:48,-17.0,145.4333,83.44,63,2,6.31
452,Jinchang,CN,2021-12-05 23:15:48,38.4953,102.1739,27.73,42,33,5.75
453,Taoudenni,ML,2021-12-05 23:15:49,22.6783,-3.9836,61.65,22,100,10.18
454,Sinazongwe,ZM,2021-12-05 23:15:49,-17.2614,27.4618,83.21,55,60,15.99
455,Gurupa,BR,2021-12-05 23:16:50,-1.405,-51.64,76.21,91,85,2.95
456,Balaipungut,ID,2021-12-05 23:16:50,1.05,101.2833,72.01,98,100,1.61
457,Marienburg,PL,2021-12-05 23:16:50,54.0359,19.0266,35.26,87,100,11.39
458,Tazovskiy,RU,2021-12-05 23:16:51,67.4667,78.7,-13.59,87,68,15.55
459,Dryden,CA,2021-12-05 23:16:51,49.7833,-92.7503,21.49,86,90,9.22
460,Sangar,RU,2021-12-05 23:14:42,63.9242,127.4739,-20.78,94,99,6.6
461,Kindu,CD,2021-12-05 23:16:51,-2.95,25.95,69.98,99,100,1.99
462,Mana,GF,2021-12-05 23:16:52,5.6592,-53.7767,77.54,90,100,8.5
463,Esfahan,IR,2021-12-05 23:16:52,32.6572,51.6776,29.84,28,100,1.72
464,Bambanglipuro,ID,2021-12-05 23:16:52,-7.95,110.2833,66.6,90,99,5.28
465,Bairiki,KI,2021-12-05 23:16:53,1.3292,172.9752,86.0,66,40,14.97
466,Mount Gambier,AU,2021-12-05 23:16:53,-37.8333,140.7667,68.22,37,74,6.96
467,Burkburnett,US,2021-12-05 23:16:53,34.0979,-98.5706,76.78,57,1,5.01
468,Abu Samrah,SY,2021-12-05 23:16:54,35.3029,37.1841,50.81,54,3,3.56
469,Sola,VU,2021-12-05 23:16:54,-13.8833,167.55,83.07,84,75,0.0
470,Bonthe,SL,2021-12-05 23:12:23,7.5264,-12.505,80.55,80,15,8.61
471,Lujiang,CN,2021-12-05 23:16:54,31.2581,117.2817,37.45,48,0,3.78
472,Krasnoselkup,RU,2021-12-05 23:16:55,65.7,82.4667,-35.34,100,30,3.6
473,San Quintin,MX,2021-12-05 23:14:25,30.4833,-115.95,64.04,73,0,14.76
474,Pangnirtung,CA,2021-12-05 23:16:55,66.1451,-65.7125,7.74,97,100,6.91
475,Zemio,CF,2021-12-05 23:16:55,5.0314,25.1361,73.78,71,98,2.44
476,Goma,CD,2021-12-05 23:16:56,-1.6792,29.2228,62.02,88,100,3.44
477,Menongue,AO,2021-12-05 23:13:09,-14.6585,17.691,62.8,94,100,7.2
478,Sayansk,RU,2021-12-05 23:16:56,54.1088,102.1648,7.34,96,89,3.6
479,Atikokan,CA,2021-12-05 23:16:56,48.7555,-91.6216,22.59,94,100,9.28
480,San Carlos De Bariloche,AR,2021-12-05 23:16:57,-41.1456,-71.3082,83.95,12,0,3.44
481,Otavalo,EC,2021-12-05 23:16:57,0.2333,-78.2667,57.42,94,97,2.51
482,Barra Do Corda,BR,2021-12-05 23:16:57,-5.5,-45.25,76.41,90,81,1.36
483,Acari,PE,2021-12-05 23:16:58,-15.4311,-74.6158,71.02,79,100,4.79
484,Boende,CD,2021-12-05 23:16:58,-0.2167,20.8667,71.8,90,100,2.37
485,Buraydah,SA,2021-12-05 23:13:43,26.326,43.975,62.67,24,18,11.86
486,Mersing,MY,2021-12-05 23:16:58,2.4312,103.8405,77.23,85,100,10.45
487,Bandarban,BD,2021-12-05 23:16:59,22.1965,92.2262,69.08,95,100,1.43
488,Ponta Pora,BR,2021-12-05 23:16:59,-22.5361,-55.7256,77.97,47,39,3.96
489,Wangkui,CN,2021-12-05 23:16:02,46.8333,126.5,9.88,92,25,7.11
490,Okhotsk,RU,2021-12-05 23:16:59,59.3833,143.3,-12.73,88,19,12.37
491,Tilichiki,RU,2021-12-05 23:17:00,60.4667,166.1,-0.13,96,88,3.65
492,Mugur-Aksy,RU,2021-12-05 23:15:13,50.35,90.5,10.17,48,99,5.75
493,Amboasary,MG,2021-12-05 23:17:00,-25.0333,46.3833,74.46,86,0,5.86
494,Qeshm,IR,2021-12-05 23:17:01,26.9581,56.2719,64.29,65,31,5.21
495,Nishihara,JP,2021-12-05 23:17:01,26.1842,127.7558,69.08,64,40,14.97
496,Vestmannaeyjar,IS,2021-12-05 23:17:01,63.4427,-20.2734,44.76,77,100,19.22
497,Cortegaca,PT,2021-12-05 23:17:02,40.9488,-8.6213,51.82,83,63,10.74
498,Canaries,ES,2021-12-05 23:17:02,28.0,-15.5,58.96,63,40,20.71
499,Naze,JP,2021-12-05 23:17:02,28.3667,129.4833,65.32,70,66,17.31
500,Maltahohe,,2021-12-05 23:17:03,-24.8333,16.9833,60.19,40,0,5.84
501,Verkhoyansk,RU,2021-12-05 23:17:03,67.5447,133.385,-20.25,99,100,1.01
502,Ghosi,IN,2021-12-05 23:17:03,26.1083,83.5436,67.59,68,0,4.68
503,Bam,IR,2021-12-05 23:17:04,29.106,58.357,53.44,39,7,2.46
504,Chateau-Gontier,FR,2021-12-05 23:18:04,47.8333,-0.7,44.82,84,63,11.36
505,General Pico,AR,2021-12-05 23:18:04,-35.6566,-63.7568,69.91,54,0,6.67
506,Hienghene,NC,2021-12-05 23:18:05,-20.6833,164.9333,81.52,68,34,6.67
507,Klyuchi,RU,2021-12-05 23:18:05,52.2667,79.1667,24.1,84,100,6.8
508,Lodja,CD,2021-12-05 23:18:05,-3.4833,23.4333,69.93,97,100,1.07
509,Pasni,PK,2021-12-05 23:18:06,25.2631,63.471,72.14,28,1,13.47
510,Beisfjord,NO,2021-12-05 23:18:06,68.3751,17.5988,14.05,59,0,8.3
511,Paita,PE,2021-12-05 23:17:38,-5.0892,-81.1144,67.77,81,92,17.76
512,Bay Roberts,CA,2021-12-05 23:18:06,47.5999,-53.2648,33.44,87,49,3.0
513,Lasa,IT,2021-12-05 23:18:07,46.6166,10.7002,30.61,92,95,5.59
514,Sierpc,PL,2021-12-05 23:18:07,52.8568,19.6691,30.24,94,97,10.85
515,Totness,SR,2021-12-05 23:18:07,5.8833,-56.3167,76.71,92,100,12.46
516,Batagay-Alyta,RU,2021-12-05 23:18:08,67.8006,130.4114,-20.09,98,100,2.62
517,Benguela,AO,2021-12-05 23:18:08,-12.5763,13.4055,76.84,83,53,4.61
518,Belmonte,BR,2021-12-05 23:16:53,-15.8631,-38.8828,77.5,85,0,5.35
519,Jaunjelgava,LV,2021-12-05 23:18:09,56.6167,25.0833,10.63,90,16,6.71
520,Zhezkazgan,KZ,2021-12-05 23:18:09,47.8043,67.7144,31.6,93,100,6.96
521,Muros,ES,2021-12-05 23:18:09,42.7762,-9.0603,53.24,94,52,4.54
522,Cap-Aux-Meules,CA,2021-12-05 23:18:10,47.3821,-61.8597,28.45,64,75,24.16
523,Saint-Francois,FR,2021-12-05 23:18:10,46.4154,3.9054,37.47,92,90,8.05
524,Nizhnyaya Tavda,RU,2021-12-05 23:18:10,57.6731,66.1725,13.78,90,73,2.24
525,Dhuburi,IN,2021-12-05 23:18:11,26.0333,89.9667,68.79,76,100,2.93
526,Manadhoo,MV,2021-12-05 23:18:11,5.7667,73.3833,81.93,76,36,10.42
527,Walvis Bay,,2021-12-05 23:18:11,-22.9575,14.5053,59.09,86,0,10.16
528,De-Kastri,RU,2021-12-05 23:18:12,51.4667,140.7833,17.31,84,97,5.97
529,Tual,ID,2021-12-05 23:18:12,-5.6667,132.75,82.44,78,99,13.87
530,Ahipara,NZ,2021-12-05 23:18:12,-35.1667,173.1667,74.77,66,56,9.86
531,Rozkishne,UA,2021-12-05 23:18:13,48.5074,39.3004,32.92,99,100,2.44
532,Mumbwa,ZM,2021-12-05 23:18:13,-14.9783,27.0619,76.41,30,79,3.85
533,Hervey Bay,AU,2021-12-05 23:18:13,-25.2986,152.8535,83.03,81,12,5.99
534,Vanavara,RU,2021-12-05 23:18:14,60.34,102.2797,-1.19,99,100,2.48
535,Sinnamary,GF,2021-12-05 23:14:18,5.3833,-52.95,77.58,88,95,8.28
536,Kumluca,TR,2021-12-05 23:14:08,36.3703,30.2869,57.67,80,82,3.91
537,General Roca,AR,2021-12-05 23:18:14,-39.0333,-67.5833,85.62,16,0,11.3
538,Udachnyy,RU,2021-12-05 23:18:15,66.4167,112.4,-28.19,99,100,6.87
539,Jafarpur,IN,2021-12-05 23:18:15,22.3208,88.2306,71.58,96,100,12.82
540,Mega,ET,2021-12-05 23:18:15,4.05,38.3,58.68,60,12,8.23
541,Pavlodar,KZ,2021-12-05 23:18:16,52.3,76.95,21.0,93,40,6.71
542,Amahai,ID,2021-12-05 23:18:16,-3.3333,128.9167,81.03,79,95,3.44
543,Bandarbeyla,SO,2021-12-05 23:18:16,9.4942,50.8122,76.21,64,5,16.08
544,Lexington,US,2021-12-05 23:13:58,37.9887,-84.4777,63.72,70,20,3.0
545,Kamina,CD,2021-12-05 23:18:17,-8.7386,24.9906,63.55,93,94,5.28
546,Tessalit,ML,2021-12-05 23:14:09,20.1986,1.0114,66.69,16,66,8.55
547,Kaeo,NZ,2021-12-05 23:16:14,-35.1,173.7833,77.32,77,41,8.61
548,Kushmurun,KZ,2021-12-05 23:18:17,52.4503,64.6311,23.58,88,100,9.22
549,Pastos Bons,BR,2021-12-05 23:19:18,-6.6017,-44.0767,74.68,88,86,1.86
550,Valdosta,US,2021-12-05 23:16:02,30.8327,-83.2785,62.8,89,40,0.0
551,Tura,IN,2021-12-05 23:19:18,25.5198,90.2201,66.34,81,100,2.53
552,Nacala,MZ,2021-12-05 23:19:19,-14.5428,40.6728,77.22,87,37,4.9
553,Okato,NZ,2021-12-05 23:19:19,-39.2,173.8833,67.42,96,100,14.07
554,Borogontsy,RU,2021-12-05 23:19:19,62.6683,131.1683,-11.24,97,100,4.43
555,Orotukan,RU,2021-12-05 23:19:20,62.2667,151.7,-36.38,97,19,5.28
556,Nongstoin,IN,2021-12-05 23:19:20,25.5167,91.2667,57.38,89,100,2.28
557,Corumba,BR,2021-12-05 23:19:20,-19.0092,-57.6533,72.46,99,100,4.56
558,Mount Isa,AU,2021-12-05 23:19:21,-20.7333,139.5,78.57,57,100,16.11
559,Turukhansk,RU,2021-12-05 23:19:21,65.8167,87.9833,-36.74,99,21,4.63
